[
{"Name": "Petrella Lava-Rápido e Estética Automotiva", "Website": "https://www.petrellapark.com.br/", "Address": "Rua Oscar Gomes Cardim, 175 - Vila Cordeiro, São Paulo - SP, 04580-040", "Evaluation": "4,6", "Hours": "08:00–17:00", "Telephone": "(11) 5096-6757"},
{"Name": "Lava Rápido e Estacionamento", "Website": "http://rede-kycker.negocio.site/", "Address": "Av. Gen. Pedro Pinho, 739 - Subsolo - Pestana, Osasco - SP, 06180-180", "Evaluation": "5,0", "Hours": null, "Telephone": "(11) 4102-8100"},
{"Name": "Lava Rápido Akio Wash", "Website": "http://www.akiowash.com.br/", "Address": "Av. Dom Pedro Primeiro, 222 - Vila Osasco, Osasco - SP, 06083-000", "Evaluation": "4,5", "Hours": "08:00–17:30", "Telephone": "(11) 3699-0033"},
{"Name": "Rhaio", "Website": "#", "Address": "Av. Antônio Carlos Costa, 254 - Bela Vista, Osasco - SP, 06053-000", "Evaluation": "4,4", "Hours": "08:00–17:30", "Telephone": "(11) 3681-1223"},
{"Name": "Wash Car", "Website": "#", "Address": "Av. dos Autonomistas, 1400 - Vila Yara, Osasco - SP, 06020-010", "Evaluation": "3,8", "Hours": "10:00–20:00", "Telephone": "(11) 3184-4220"},
{"Name": "Lava Rápido K-pricho", "Website": "#", "Address": "R. Pedro Fioreti, 551 - Centro, Osasco - SP, 06013-080", "Evaluation": "5,0", "Hours": null, "Telephone": "(11) 3699-4366"},
{"Name": "DryWash - Walmart Osasco", "Website": "http://www.drywash.com.br/", "Address": "Av. dos Autonomistas, 1828 - Industrial Autonomistas, Osasco - SP, 06020-000", "Evaluation": "3,3", "Hours": "10:00–18:00", "Telephone": "(11) 3683-5342"},
{"Name": "Aquamarine Lava Rápido", "Website": "https://pt-br.facebook.com/AquamarineLavaRapido/", "Address": "R. Espedito Izídio Andrade, 153 - Metalúrgicos, Osasco - SP, 06150-270", "Evaluation": "4,4", "Hours": "08:00–18:00", "Telephone": "(11) 2509-2158"},
{"Name": "Lava Rápido Ricardinho", "Website": "#", "Address": "Av. Sete de Setembro, 90 - Cipava, Osasco - SP, 06065-010", "Evaluation": "4,7", "Hours": null, "Telephone": "(11) 94776-1007"},
{"Name": "Lava Rápido Senna", "Website": "#", "Address": "Av. Dionysia Alves Barreto, 566 - Vila Osasco, Osasco - SP, 06086-045", "Evaluation": "4,5", "Hours": null, "Telephone": null},
{"Name": "Lava Rápido Elite Detailing", "Website": "http://www.facebook.com/elitedetailingtico1", "Address": "Av. Prestes Maia, 538 - Jardim D'abril, Osasco - SP, 06040-008", "Evaluation": "4,3", "Hours": "08:00–18:00", "Telephone": "(11) 97997-6611"},
{"Name": "Ferreira Lava Rápido", "Website": "http://oliveiralavarapido.vitrinevirtual.net/", "Address": "Av. Cruzeiro do Sul, 825 - Rochdale, Osasco - SP, 06226-004", "Evaluation": "4,2", "Hours": "08:00–18:00", "Telephone": "(11) 3599-7078"},
{"Name": "Lava-Rapido Strike", "Website": "#", "Address": "Av. Novo Osasco, 1187 - Novo Osasco, Osasco - SP, 06056-010", "Evaluation": "4,8", "Hours": "08:00–17:00", "Telephone": "(11) 96017-0187"},
{"Name": "Estacionamento & Lava Rapido", "Website": "#", "Address": "R. Alexandre Baptistone, 140 - Quitaúna, Osasco - SP, 06190-120", "Evaluation": "4,5", "Hours": null, "Telephone": "(11) 94793-0700"},
{"Name": "Estacionamento e Lava Rápido RN", "Website": "#", "Address": "Av. Mal. Rondon, 721 - Centro, Osasco - SP, 06093-015", "Evaluation": "4,0", "Hours": null, "Telephone": "(11) 3681-5822"},
{"Name": "Lava Rápido e Estacionamento Flora", "Website": "#", "Address": "Av. Flora, 742 - Jaguaribe, Osasco - SP, 06053-130", "Evaluation": "3,9", "Hours": "08:00–19:00", "Telephone": "(11) 94179-7131"},
{"Name": "Lava-Rapido Auto Stillo", "Website": "#", "Address": "R. Bernardo Ernandes, 422 - Pestana, Osasco - SP, 06180-050", "Evaluation": "3,7", "Hours": null, "Telephone": "(11) 3607-2946"},
{"Name": "Jet Car Lava Rapido", "Website": "https://jet-car-lava-rapido.negocio.site/", "Address": "R. Elza Fagundes Moraes, 294 - Jardim Roberto, Osasco - SP, 06170-220", "Evaluation": "4,5", "Hours": "08:00–17:30", "Telephone": "(11) 98764-3329"},
{"Name": "Lava Rápido Point Veloso", "Website": "#", "Address": "Padroeira, Osasco - SP, 06162-100", "Evaluation": "4,4", "Hours": null, "Telephone": null},
{"Name": "Baturite Lava Rápido", "Website": "#", "Address": "Av. Gen. Pedro Pinho, 132 - Jardim das Flores, Osasco - SP, 06180-180", "Evaluation": "3,6", "Hours": "08:00–18:00", "Telephone": "(11) 93803-7291"},
{"Name": "Lava-Rápido Vera Cruz", "Website": "#", "Address": "R. Agudos, 264 - Rochdale, Osasco - SP, 06223-140", "Evaluation": "4,4", "Hours": "08:00–17:00", "Telephone": "(11) 96314-9468"},
{"Name": "Lava Rapido e Estacionamento Atlanta", "Website": "#", "Address": "Av. Yara, 392 - Vila Yara, Osasco - SP, 06028-100", "Evaluation": "4,3", "Hours": "07:30–20:00", "Telephone": "(11) 96850-6062"},
{"Name": "Lava Rápido Novo De Novo _SEM LIMITE", "Website": "#", "Address": "Av. Sarah Veloso, 8 - Veloso, Osasco - SP, 06150-000", "Evaluation": "2,7", "Hours": "08:00–22:00", "Telephone": "(11) 95818-9322"},
{"Name": "Lava-rápido de Caminhões Rink", "Website": "#", "Address": "Av. Luís Rink, 714 / 720 - Mutinga, Osasco - SP, 06286-000", "Evaluation": "4,0", "Hours": "08:00–17:00", "Telephone": "(11) 3687-0010"},
{"Name": "Pit Stop Lava Rápido", "Website": "#", "Address": "Av. das Esmeraldas, 380 - Mutinga, Osasco - SP, 06286-010", "Evaluation": "4,5", "Hours": null, "Telephone": "(11) 94735-9025"},
{"Name": "Lava Rápido Paraná", "Website": "#", "Address": "Av. João de Andrade, 609 - Santo Antônio, Osasco - SP, 06132-055", "Evaluation": "4,0", "Hours": "08:00–19:00", "Telephone": "(11) 3691-3079"},
{"Name": "Lava Rápido Bela Vista", "Website": "#", "Address": "R. Itápolis, 77 - Vila Osasco, Osasco - SP, 06083-080", "Evaluation": "4,4", "Hours": null, "Telephone": null},
{"Name": "Lava-Rápido Elite", "Website": "#", "Address": "R. São Maurício, 497 - Jardim das Flores, Osasco - SP, 06110-250", "Evaluation": "4,2", "Hours": "08:00–18:00", "Telephone": "(11) 93149-6771"},
{"Name": "Stop Car Estacionamento e Lava Rapido", "Website": "#", "Address": "Av. dos Autonomistas, 927 - Vila Yara, Osasco - SP, 06090-023", "Evaluation": "3,8", "Hours": null, "Telephone": null},
{"Name": "Lava Rapido Tio Patinhas", "Website": "#", "Address": "R. Henry Ford, 660 - Pres. Altino, Osasco - SP, 06210-103", "Evaluation": "3,8", "Hours": "08:00–17:00", "Telephone": "(11) 94082-0362"},
{"Name": "City Lava Rápido e Estacionamento", "Website": "http://city-lava-rapido-e-estacionamento.negocio.site/", "Address": "R. Augusto Monteiro de Abreu, 170 - Jardim D'abril, Osasco - SP, 06040-020", "Evaluation": "4,7", "Hours": "08:00–17:30", "Telephone": "(11) 94796-5002"},
{"Name": "Lava Rápido Continental", "Website": "#", "Address": "Av. dos Autonomistas, 541 - Vila Yara, Osasco - SP, 06020-000", "Evaluation": "3,9", "Hours": null, "Telephone": null},
{"Name": "Lava Rápido Detroit", "Website": "#", "Address": "Av. Lucianinho Meli, 78 B - Bela Vista, Osasco - SP, 06080-015", "Evaluation": "4,7", "Hours": "08:00–19:30", "Telephone": "(11) 94751-1850"},
{"Name": "Stop Box Estacionamento & Lava Rápido", "Website": "#", "Address": "R. João Colino, 270 - Centro, Osasco - SP, 06013-020", "Evaluation": "3,0", "Hours": null, "Telephone": "(11) 2620-4538"},
{"Name": "Lava Rápido Braz", "Website": "#", "Address": "R. Pres. Costa e Silva, 420 - Helena Maria, Osasco - SP, 06253-000", "Evaluation": "4,6", "Hours": "08:00–17:00", "Telephone": "(11) 3682-2595"},
{"Name": "Lava Rapido Della's", "Website": "#", "Address": "R. Amador Bueno, 341 - Piratininga, Osasco - SP, 06230-100", "Evaluation": "4,4", "Hours": null, "Telephone": "(11) 96240-8426"},
{"Name": "PAPITO - LAVA RÁPIDO E ESTACIONAMENTO", "Website": "https://lava-rapido-e-estacionamento-papito.negocio.site/?utm_source=gmb&utm_medium=referral", "Address": "R. Dep. Emílio Carlos, 440 - Vila Campesina, Osasco - SP, 06028-010", "Evaluation": null, "Hours": "07:00–18:00", "Telephone": "(11) 4624-5780"},
{"Name": "Lava Rápido Nova Conceição", "Website": "#", "Address": "R. Paranaense, 198 - Conceicao, Osasco - SP, 06140-052", "Evaluation": "3,8", "Hours": "08:00–18:00", "Telephone": "(11) 97036-8186"},
{"Name": "Lava Rápido juriti", "Website": "#", "Address": "R. João Marcheti, 372 - Vila Jaraguá, Osasco - SP, 06283-080", "Evaluation": "5,0", "Hours": "08:00–17:00", "Telephone": "(11) 95788-8838"},
{"Name": "Lava Rápido Fino Trato", "Website": "https://lava-rapido-fino-trato.negocio.site/", "Address": "R. João Carlos Munhoz Vaqueiro, 527A - Novo Osasco, Osasco - SP, 06142-150", "Evaluation": "5,0", "Hours": "09:00–18:00", "Telephone": "(11) 94173-5835"},
{"Name": "Lava Rápido Estrela", "Website": "#", "Address": "Av. Antônio Carlos Costa, 1081 - Bela Vista, Osasco - SP, 06053-010", "Evaluation": "3,4", "Hours": null, "Telephone": "(11) 3592-4403"},
{"Name": "Lava Rápido e Estacionamento Carlão", "Website": "#", "Address": "R. Profᵃ José Azevedo Minhoto, 155 - Km 18, Osasco - SP, 06114-000", "Evaluation": "3,8", "Hours": "08:00–18:00", "Telephone": "(11) 94729-4270"},
{"Name": "Lava Rápido Queiroz", "Website": "#", "Address": "Av. Gen. Pedro Pinho, 1042 - Pestana, Osasco - SP, 06122-160", "Evaluation": "3,0", "Hours": null, "Telephone": "(11) 4624-2315"},
{"Name": "Lava Rápido Troca de Óleo Braz", "Website": "#", "Address": "R. João Francisco Regina, 420 - Jardim Elvira, Osasco - SP, 06250-080", "Evaluation": "3,5", "Hours": null, "Telephone": "(11) 3656-9220"},
{"Name": "Lava Rápido e estacionamento Sales", "Website": "#", "Address": "R. Alexandre Baptistone, Número 140 - Km 18 - Quitaúna, Osasco - SP, 06190-120", "Evaluation": null, "Hours": "07:00–20:00", "Telephone": "(11) 93203-6569"},
{"Name": "Lava rapido zumbi", "Website": "https://lava-rapido-zumbi.negocio.site/?utm_source=gmb&utm_medium=referral", "Address": "Ao lado da segunda portaria do condomínio são cristovan - R. Zumbi dos Palmares - Bandeiras, Osasco - SP, 06160-201", "Evaluation": "5,0", "Hours": "08:00–17:00", "Telephone": "(11) 93210-0100"},
{"Name": "Lava Rápido Helena Maria", "Website": "#", "Address": "R. Pres. Costa e Silva, 1475 - Helena Maria, Osasco - SP, 06253-000", "Evaluation": "5,0", "Hours": "08:00–18:00", "Telephone": "(11) 95071-4925"},
{"Name": "Lava Rapido Tudo Nosso", "Website": "https://www.facebook.com/Lava-R%C3%A1pido-Tudo-Nosso-Da-XV-101013610238911/", "Address": "R. Vicente Celestino - Santo Antônio, Osasco - SP, 06126-100", "Evaluation": "4,4", "Hours": "08:00–18:00", "Telephone": "(11) 3591-3675"},
{"Name": "Lava Rápido Cururu", "Website": "#", "Address": "Rua Vitório Tafarello, 506 - Km 18, Osasco - SP, 06192-150", "Evaluation": "5,0", "Hours": "08:00–17:00", "Telephone": "(11) 94256-9779"},
{"Name": "Mangueira Preta - Lava Rapido", "Website": "#", "Address": "Av. Analice Sakatauskas, 428 - Bela Vista, Osasco - SP, 06060-006", "Evaluation": "5,0", "Hours": null, "Telephone": null},
{"Name": "LAVA-RAPIDO BRANDÃO", "Website": "#", "Address": "Estr. das Rosas, 201 - Santa Maria, Osasco - SP, 06150-350", "Evaluation": "4,0", "Hours": "08:00–18:00", "Telephone": "(11) 98136-8253"},
{"Name": "Lava Rápido Combate", "Website": "#", "Address": "Av. São José, 386 - Ayrosa, Osasco - SP, 06283-120", "Evaluation": null, "Hours": "08:00–17:00", "Telephone": "(11) 99158-4110"},
{"Name": "Mpb Lava-Rápido Com Estacionamento", "Website": "#", "Address": "Av. José Lopes Lázaro, 164 - Pres. Altino, Osasco - SP, 06210-030", "Evaluation": "1,0", "Hours": null, "Telephone": null},
{"Name": "Kidoido's Lava Rápido Barbearia - Estacionamento Noturno", "Website": "#", "Address": "R. Padre Paulo Xerdel, 70 - Vila Yolanda, Osasco - SP, 06120-240", "Evaluation": "4,8", "Hours": "08:00–18:00", "Telephone": "(11) 98690-2425"},
{"Name": "Lava Rápido SPA", "Website": "#", "Address": "R. João Hofman, 35 - Bela Vista, Osasco - SP, 06060-130", "Evaluation": "4,8", "Hours": "08:00–17:00", "Telephone": "(11) 4384-1871"},
{"Name": "Lava Rápido Alemão", "Website": "#", "Address": "R. Júlio Silva, 133 - Centro, Osasco - SP, 06093-070", "Evaluation": "1,0", "Hours": null, "Telephone": "(11) 99851-5232"},
{"Name": "Hawai Lava Rápido", "Website": "#", "Address": "Av. das Flores, 478 - Jardim das Flores, Osasco - SP, 06110-100", "Evaluation": "2,5", "Hours": "08:00–17:00", "Telephone": "(11) 3681-2114"},
{"Name": "DUCHA CAR LAVA RAPIDO", "Website": "#", "Address": "R. Aníbal Simões, 54 - Jardim Elvira, Osasco - SP, 06250-190", "Evaluation": null, "Hours": "08:00–18:00", "Telephone": "(11) 2576-1223"},
{"Name": "Classe A", "Website": "#", "Address": "Av. Gen. Pedro Pinho, 984 - Pestana, Osasco - SP, 06122-160", "Evaluation": "4,6", "Hours": null, "Telephone": "(11) 3412-6085"},
{"Name": "Lava Rapido Menck", "Website": "#", "Address": "Av. Alberto J. Byington, 635 - Vila Menck, Osasco - SP, 06273-050", "Evaluation": null, "Hours": "08:00–17:00", "Telephone": "(11) 95558-9085"},
{"Name": "Lava rapido zumbi da luh", "Website": "#", "Address": "R. Primo Zacante - Jd joelma, Osasco - SP, 06160-201", "Evaluation": null, "Hours": "08:00–16:30", "Telephone": "(11) 93210-0100"},
{"Name": "Lava Rápido Esmeralda", "Website": "#", "Address": "Av. das Esmeraldas, 154 - Mutinga, Osasco - SP, 06286-010", "Evaluation": "5,0", "Hours": "08:00–18:00", "Telephone": "(11) 3451-2145"},
{"Name": "LAVA RÁPIDO VILLA'S", "Website": "#", "Address": "R. Antônio José Nurchis, 87 - Vila Yolanda, Osasco - SP, 06124-080", "Evaluation": "4,6", "Hours": "08:00–17:00", "Telephone": null},
{"Name": "Gs Estacionamento e Lava rapido", "Website": "#", "Address": "R. São Maurício, 186 - Jardim das Flores, Osasco - SP, 06110-250", "Evaluation": null, "Hours": null, "Telephone": "(11) 97720-1938"},
{"Name": "Lava Rapido Estacionamento 2 Irmãos", "Website": "#", "Address": "Av. Cásper Líbero, 63 - Vila Osasco, Osasco - SP, 06080-075", "Evaluation": null, "Hours": null, "Telephone": null},
{"Name": "Lava Rápido S&D", "Website": "#", "Address": "Av. dos Autonomistas, 6023 - Quitaúna, Osasco - SP, 06194-050", "Evaluation": null, "Hours": null, "Telephone": "(11) 95918-7455"},
{"Name": "Lava Rapido Luki Lavacar", "Website": "#", "Address": "R. Joaquim Lapas Veiga, 374 - City Bussocaba, Osasco - SP, 06040-110", "Evaluation": "5,0", "Hours": "08:00–18:00", "Telephone": "(11) 94088-5138"},
{"Name": "Lava Rápido das Loiras", "Website": "#", "Address": "Av. Cruzeiro do Sul, 1190 - Rochdale, Osasco - SP, 06226-006", "Evaluation": "4,8", "Hours": "08:00–18:00", "Telephone": "(11) 7005-3095"},
{"Name": "Lava Rápido Pérola", "Website": "#", "Address": "06172002, Av. José Barbosa de Siqueira, N° 624 - Padroeira, Osasco - SP, 06172-002", "Evaluation": "4,4", "Hours": "08:30–17:30", "Telephone": "(11) 98831-1017"},
{"Name": "Lava Rápido Confiança", "Website": "#", "Address": "R. Águas da Prata, 483 - Rochdale, Osasco - SP, 06223-200", "Evaluation": "5,0", "Hours": "08:30–17:00", "Telephone": "(11) 3603-5277"},
{"Name": "Lava Rápido e Estacionamento Arruda", "Website": "#", "Address": "Av. Antônio Carlos Costa, 265 - Bela Vista, Osasco - SP, 06053-010", "Evaluation": null, "Hours": null, "Telephone": "(11) 96216-0884"},
{"Name": "Puma Lava Rapido", "Website": "#", "Address": "Av. dos Remédios, 488 - Vila dos Remedios, Osasco - SP, 02675-031", "Evaluation": "4,0", "Hours": null, "Telephone": null},
{"Name": "Poty Lava Rápido & Estacionamento", "Website": "#", "Address": "Av. Antônio Carlos Costa, 870 - Bela Vista, Osasco - SP, 06053-004", "Evaluation": "4,0", "Hours": null, "Telephone": null},
{"Name": "Lava Rápido Cruzeiro do Sul", "Website": "#", "Address": "Av. Cruzeiro do Sul, 1391 - Rochdale, Osasco - SP, 06226-006", "Evaluation": "4,3", "Hours": null, "Telephone": "(11) 3697-0673"},
{"Name": "Lava Rapido Água Zero", "Website": "#", "Address": "R. Gabriel Seferian, 49 - Pres. Altino, Osasco - SP, 06210-060", "Evaluation": "5,0", "Hours": null, "Telephone": "(11) 2228-8446"},
{"Name": "Lava Rapido 209", "Website": "#", "Address": "R. Osório Duque Estrada, 286 - Pestana, Osasco - SP, 06122-030", "Evaluation": null, "Hours": null, "Telephone": null},
